{
"type": "FeatureCollection",
"name": "hamburg_sbahn_stationen4326",
"crs": { "type": "name", "properties": { "name": "urn:ogc:def:crs:OGC:1.3:CRS84" } },
"features": [
{ "type": "Feature", "properties": { "supplier": "Master", "id": 10011, "x": 3566704, "y": 5936159, "lines": "112,SEV", "linekat": "Stadtbus,Niederflur Stadtbus", "lineshortkat": "Bus,Bus", "short_name": "HBF\/Spitalerstraße", "priority": "0" }, "geometry": { "type": "Point", "coordinates": [ 10.005389191486765, 53.552670707610439 ] } },
{ "type": "Feature", "properties": { "supplier": "Master", "id": 10051, "x": 3566913, "y": 5936189, "lines": "S-SEV,17,607,SEV,37,6", "linekat": "Stadtbus,Niederflur-Nachtbus,Niederflur-Schnellbus,Niederflur Metrobus", "lineshortkat": "Bus,Nachtbus,Schnellbus,Bus", "short_name": "HBF\/Kirchenallee", "priority": "0" }, "geometry": { "type": "Point", "coordinates": [ 10.00854855915072, 53.552913651839788 ] } },
{ "type": "Feature", "properties": { "supplier": "Master", "id": 25951, "x": 3583202, "y": 5931489, "lines": "S21", "linekat": "S-Bahn", "lineshortkat": "S", "short_name": "Reinbek", "priority": "0" }, "geometry": { "type": "Point", "coordinates": [ 10.253020079164664, 53.508368140321153 ] } },
{ "type": "Feature", "properties": { "supplier": "Master", "id": 80953, "x": 3561998, "y": 5936017, "lines": "S21,S2,S3,S31,S11,S1", "linekat": "S-Bahn", "lineshortkat": "S", "short_name": "Altona", "priority": "0" }, "geometry": { "type": "Point", "coordinates": [ 9.934365489560006, 53.551971137294998 ] } },
{ "type": "Feature", "properties": { "supplier": "Master", "id": 81950, "x": 3554089, "y": 5937314, "lines": "S11,S1", "linekat": "S-Bahn", "lineshortkat": "S", "short_name": "Blankenese", "priority": "0" }, "geometry": { "type": "Point", "coordinates": [ 9.815271400453007, 53.564496784233128 ] } },
{ "type": "Feature", "properties": { "supplier": "Master", "id": 99950, "x": 3553920, "y": 5946185, "lines": "S3", "linekat": "S-Bahn", "lineshortkat": "S", "short_name": "Thesdorf", "priority": "0" }, "geometry": { "type": "Point", "coordinates": [ 9.814253770777622, 53.644211347929073 ] } },
{ "type": "Feature", "properties": { "supplier": "Master", "id": 10011, "x": 3566704, "y": 5936159, "lines": "112,SEV", "linekat": "Stadtbus,Niederflur Stadtbus", "lineshortkat": "Bus,Bus", "short_name": "HBF\/Spitalerstraße", "priority": "0" }, "geometry": { "type": "Point", "coordinates": [ 10.005389191486765, 53.552670707610439 ] } },
{ "type": "Feature", "properties": { "supplier": "Master", "id": 10051, "x": 3566913, "y": 5936189, "lines": "S-SEV,17,607,SEV,37,6", "linekat": "Stadtbus,Niederflur-Nachtbus,Niederflur-Schnellbus,Niederflur Metrobus", "lineshortkat": "Bus,Nachtbus,Schnellbus,Bus", "short_name": "HBF\/Kirchenallee", "priority": "0" }, "geometry": { "type": "Point", "coordinates": [ 10.00854855915072, 53.552913651839788 ] } },
{ "type": "Feature", "properties": { "supplier": "Master", "id": 25951, "x": 3583202, "y": 5931489, "lines": "S21", "linekat": "S-Bahn", "lineshortkat": "S", "short_name": "Reinbek", "priority": "0" }, "geometry": { "type": "Point", "coordinates": [ 10.253020079164664, 53.508368140321153 ] } },
{ "type": "Feature", "properties": { "supplier": "Master", "id": 80953, "x": 3561998, "y": 5936017, "lines": "S21,S2,S3,S31,S11,S1", "linekat": "S-Bahn", "lineshortkat": "S", "short_name": "Altona", "priority": "0" }, "geometry": { "type": "Point", "coordinates": [ 9.934365489560006, 53.551971137294998 ] } },
{ "type": "Feature", "properties": { "supplier": "Master", "id": 81950, "x": 3554089, "y": 5937314, "lines": "S11,S1", "linekat": "S-Bahn", "lineshortkat": "S", "short_name": "Blankenese", "priority": "0" }, "geometry": { "type": "Point", "coordinates": [ 9.815271400453007, 53.564496784233128 ] } },
{ "type": "Feature", "properties": { "supplier": "Master", "id": 99950, "x": 3553920, "y": 5946185, "lines": "S3", "linekat": "S-Bahn", "lineshortkat": "S", "short_name": "Thesdorf", "priority": "0" }, "geometry": { "type": "Point", "coordinates": [ 9.814253770777622, 53.644211347929073 ] } },
{ "type": "Feature", "properties": { "supplier": "Master", "id": 10950, "x": 3566873, "y": 5936170, "lines": "RB81,RB61,S21,DPF,IC,RB31,RB41,S3,RE70,RE80,RE5,RE1,S2,RE8,EC,A1,S11,RE,S31,RE4,S1,RE7,ICE,RE3,IRE", "linekat": "AKN Niederflurfahrzeug,RegionalExpress,InterCityExpress,Fernreisezug,Interregio-Express,S-Bahn,EuroCity,RegionalBahn,InterCity", "lineshortkat": "A,RE,ICE,DPF,IRE,S,EC,RB,IC", "short_name": "Hamburg Hbf", "priority": "0" }, "geometry": { "type": "Point", "coordinates": [ 10.007941060199293, 53.552748053795256 ] } },
{ "type": "Feature", "properties": { "supplier": "Master", "id": 10951, "x": 3567933, "y": 5935500, "lines": "S3,S31", "linekat": "S-Bahn", "lineshortkat": "S", "short_name": "Hammerbrook (City Süd)", "priority": "0" }, "geometry": { "type": "Point", "coordinates": [ 10.023786702857736, 53.546593138070989 ] } },
{ "type": "Feature", "properties": { "supplier": "Master", "id": 10952, "x": 3567978, "y": 5936215, "lines": "U4,S21,S2,U3,U2,S31,S11,S1", "linekat": "U-Bahn,S-Bahn", "lineshortkat": "U,S", "short_name": "Berliner Tor", "priority": "0" }, "geometry": { "type": "Point", "coordinates": [ 10.024620720032612, 53.553010570733306 ] } },
{ "type": "Feature", "properties": { "supplier": "Master", "id": 10953, "x": 3568845, "y": 5937146, "lines": "S11,S1", "linekat": "S-Bahn", "lineshortkat": "S", "short_name": "Landwehr", "priority": "0" }, "geometry": { "type": "Point", "coordinates": [ 10.037905016486109, 53.561261382820014 ] } },
{ "type": "Feature", "properties": { "supplier": "Master", "id": 10954, "x": 3569313, "y": 5934607, "lines": "S21,S2", "linekat": "S-Bahn", "lineshortkat": "S", "short_name": "Rothenburgsort", "priority": "0" }, "geometry": { "type": "Point", "coordinates": [ 10.044404433936316, 53.538390731538357 ] } },
{ "type": "Feature", "properties": { "supplier": "Master", "id": 11943, "x": 3567940, "y": 5934234, "lines": "U4,S3,S31", "linekat": "U-Bahn,S-Bahn", "lineshortkat": "U,S", "short_name": "Elbbrücken", "priority": "0" }, "geometry": { "type": "Point", "coordinates": [ 10.023617695056355, 53.535219020230308 ] } },
{ "type": "Feature", "properties": { "supplier": "Master", "id": 11950, "x": 3566009, "y": 5936157, "lines": "U4,S21,S2,U2,S3,U1,S31,S1", "linekat": "U-Bahn,S-Bahn", "lineshortkat": "U,S", "short_name": "Jungfernstieg", "priority": "0" }, "geometry": { "type": "Point", "coordinates": [ 9.994904028430213, 53.552740477253217 ] } },
{ "type": "Feature", "properties": { "supplier": "Master", "id": 11951, "x": 3565654, "y": 5937066, "lines": "S21,S3,S31,S11,S1", "linekat": "S-Bahn", "lineshortkat": "S", "short_name": "Dammtor (Messe\/CCH)", "priority": "0" }, "geometry": { "type": "Point", "coordinates": [ 9.989739201279793, 53.560951076556385 ] } },
{ "type": "Feature", "properties": { "supplier": "Master", "id": 11952, "x": 3565352, "y": 5935781, "lines": "S21,S2,S3,S31,S1", "linekat": "S-Bahn", "lineshortkat": "S", "short_name": "Stadthausbrücke", "priority": "0" }, "geometry": { "type": "Point", "coordinates": [ 9.984914012889222, 53.549444711251098 ] } },
{ "type": "Feature", "properties": { "supplier": "Master", "id": 21950, "x": 3572815, "y": 5932145, "lines": "S21,S2", "linekat": "S-Bahn", "lineshortkat": "S", "short_name": "Billwerder-Moorfleet", "priority": "0" }, "geometry": { "type": "Point", "coordinates": [ 10.096644302507215, 53.51580040982784 ] } },
{ "type": "Feature", "properties": { "supplier": "Master", "id": 21951, "x": 3575155, "y": 5930206, "lines": "S21,S2", "linekat": "S-Bahn", "lineshortkat": "S", "short_name": "Mittlerer Landweg", "priority": "0" }, "geometry": { "type": "Point", "coordinates": [ 10.131449030433119, 53.498052834004135 ] } },
{ "type": "Feature", "properties": { "supplier": "Master", "id": 21952, "x": 3578488, "y": 5929141, "lines": "S21,S2", "linekat": "S-Bahn", "lineshortkat": "S", "short_name": "Nettelnburg", "priority": "0" }, "geometry": { "type": "Point", "coordinates": [ 10.181396863934403, 53.48799958209068 ] } },
{ "type": "Feature", "properties": { "supplier": "Master", "id": 21953, "x": 3576961, "y": 5929392, "lines": "S21,S2", "linekat": "S-Bahn", "lineshortkat": "S", "short_name": "Allermöhe", "priority": "0" }, "geometry": { "type": "Point", "coordinates": [ 10.158458398213497, 53.490479655166219 ] } },
{ "type": "Feature", "properties": { "supplier": "Master", "id": 25950, "x": 3580115, "y": 5929374, "lines": "S21,RE1,S2,IC,EC", "linekat": "RegionalExpress,S-Bahn,EuroCity,InterCity", "lineshortkat": "RE,S,EC,IC", "short_name": "Bergedorf", "priority": "0" }, "geometry": { "type": "Point", "coordinates": [ 10.205962095038972, 53.489847746990698 ] } },
{ "type": "Feature", "properties": { "supplier": "Master", "id": 25951, "x": 3583202, "y": 5931489, "lines": "S21", "linekat": "S-Bahn", "lineshortkat": "S", "short_name": "Reinbek", "priority": "0" }, "geometry": { "type": "Point", "coordinates": [ 10.253020079164664, 53.508368140321153 ] } },
{ "type": "Feature", "properties": { "supplier": "Master", "id": 25952, "x": 3584827, "y": 5932881, "lines": "S21", "linekat": "S-Bahn", "lineshortkat": "S", "short_name": "Wohltorf", "priority": "0" }, "geometry": { "type": "Point", "coordinates": [ 10.277883238334876, 53.52061289676125 ] } },
{ "type": "Feature", "properties": { "supplier": "Master", "id": 25953, "x": 3587243, "y": 5933974, "lines": "S21", "linekat": "S-Bahn", "lineshortkat": "S", "short_name": "Aumühle", "priority": "0" }, "geometry": { "type": "Point", "coordinates": [ 10.314603569917161, 53.530035947198144 ] } },
{ "type": "Feature", "properties": { "supplier": "Master", "id": 40950, "x": 3565178, "y": 5925891, "lines": "S3,S31", "linekat": "S-Bahn", "lineshortkat": "S", "short_name": "Harburg Rathaus", "priority": "0" }, "geometry": { "type": "Point", "coordinates": [ 9.980235776897583, 53.460617009141799 ] } },
{ "type": "Feature", "properties": { "supplier": "Master", "id": 41950, "x": 3558309, "y": 5927178, "lines": "S3,S31", "linekat": "S-Bahn", "lineshortkat": "S", "short_name": "Neuwiedenthal", "priority": "0" }, "geometry": { "type": "Point", "coordinates": [ 9.877070057299683, 53.472983672081661 ] } },
{ "type": "Feature", "properties": { "supplier": "Master", "id": 41951, "x": 3556635, "y": 5927272, "lines": "S3,S31", "linekat": "S-Bahn", "lineshortkat": "S", "short_name": "Neugraben", "priority": "0" }, "geometry": { "type": "Point", "coordinates": [ 9.851879419698424, 53.47401067256326 ] } },
{ "type": "Feature", "properties": { "supplier": "Master", "id": 42950, "x": 3564036, "y": 5926408, "lines": "S3,S31", "linekat": "S-Bahn", "lineshortkat": "S", "short_name": "Heimfeld", "priority": "0" }, "geometry": { "type": "Point", "coordinates": [ 9.963149939645128, 53.465401562533536 ] } },
{ "type": "Feature", "properties": { "supplier": "Master", "id": 49950, "x": 3565919, "y": 5925485, "lines": "S3,S31", "linekat": "S-Bahn", "lineshortkat": "S", "short_name": "Harburg", "priority": "0" }, "geometry": { "type": "Point", "coordinates": [ 9.991305282839523, 53.456877492570079 ] } },
{ "type": "Feature", "properties": { "supplier": "Master", "id": 51988, "x": 3552440, "y": 5927115, "lines": "S3", "linekat": "S-Bahn", "lineshortkat": "S", "short_name": "Neu Wulmstorf", "priority": "0" }, "geometry": { "type": "Point", "coordinates": [ 9.788681321971362, 53.473034121887977 ] } },
{ "type": "Feature", "properties": { "supplier": "Master", "id": 54950, "x": 3567295, "y": 5932730, "lines": "S3,S31", "linekat": "S-Bahn", "lineshortkat": "S", "short_name": "Veddel (BallinStadt)", "priority": "0" }, "geometry": { "type": "Point", "coordinates": [ 10.013568431828162, 53.521790564837183 ] } },
{ "type": "Feature", "properties": { "supplier": "Master", "id": 54951, "x": 3566899, "y": 5930162, "lines": "S3,S31", "linekat": "S-Bahn", "lineshortkat": "S", "short_name": "Wilhelmsburg", "priority": "0" }, "geometry": { "type": "Point", "coordinates": [ 10.007051307555672, 53.498770985925418 ] } },
{ "type": "Feature", "properties": { "supplier": "Master", "id": 60951, "x": 3570266, "y": 5938177, "lines": "U1,S11,S1", "linekat": "U-Bahn,S-Bahn", "lineshortkat": "U,S", "short_name": "Wandsbeker Chaussee", "priority": "0" }, "geometry": { "type": "Point", "coordinates": [ 10.05957773775107, 53.570335214781267 ] } },
{ "type": "Feature", "properties": { "supplier": "Master", "id": 60952, "x": 3570106, "y": 5938860, "lines": "S11,S1", "linekat": "S-Bahn", "lineshortkat": "S", "short_name": "Friedrichsberg", "priority": "0" }, "geometry": { "type": "Point", "coordinates": [ 10.057316189633161, 53.576492279976314 ] } },
{ "type": "Feature", "properties": { "supplier": "Master", "id": 61950, "x": 3570704, "y": 5933861, "lines": "S21,S2", "linekat": "S-Bahn", "lineshortkat": "S", "short_name": "Tiefstack", "priority": "0" }, "geometry": { "type": "Point", "coordinates": [ 10.065213182946872, 53.531503891238394 ] } },
{ "type": "Feature", "properties": { "supplier": "Master", "id": 70950, "x": 3569236, "y": 5940061, "lines": "U3,S11,S1", "linekat": "U-Bahn,S-Bahn", "lineshortkat": "U,S", "short_name": "Barmbek", "priority": "0" }, "geometry": { "type": "Point", "coordinates": [ 10.044450354546118, 53.58739683285539 ] } },
{ "type": "Feature", "properties": { "supplier": "Master", "id": 70951, "x": 3568621, "y": 5941193, "lines": "S11,S1", "linekat": "S-Bahn", "lineshortkat": "S", "short_name": "Alte Wöhr (Stadtpark)", "priority": "0" }, "geometry": { "type": "Point", "coordinates": [ 10.035413763012672, 53.59764687117179 ] } },
{ "type": "Feature", "properties": { "supplier": "Master", "id": 70952, "x": 3568450, "y": 5942116, "lines": "S11,S1", "linekat": "S-Bahn", "lineshortkat": "S", "short_name": "Rübenkamp (City Nord)", "priority": "0" }, "geometry": { "type": "Point", "coordinates": [ 10.033033794081875, 53.605960940293478 ] } },
{ "type": "Feature", "properties": { "supplier": "Master", "id": 71950, "x": 3569793, "y": 5945087, "lines": "S11,S1", "linekat": "S-Bahn", "lineshortkat": "S", "short_name": "Kornweg (Klein Borstel)", "priority": "0" }, "geometry": { "type": "Point", "coordinates": [ 10.053984502833687, 53.632473607013765 ] } },
{ "type": "Feature", "properties": { "supplier": "Master", "id": 71951, "x": 3570685, "y": 5945441, "lines": "S11,S1", "linekat": "S-Bahn", "lineshortkat": "S", "short_name": "Hoheneichen", "priority": "0" }, "geometry": { "type": "Point", "coordinates": [ 10.067546600866851, 53.6355341579726 ] } },
{ "type": "Feature", "properties": { "supplier": "Master", "id": 71952, "x": 3571686, "y": 5946107, "lines": "S11,S1", "linekat": "S-Bahn", "lineshortkat": "S", "short_name": "Wellingsbüttel", "priority": "0" }, "geometry": { "type": "Point", "coordinates": [ 10.08283013955074, 53.641381037720755 ] } },
{ "type": "Feature", "properties": { "supplier": "Master", "id": 71953, "x": 3572395, "y": 5947307, "lines": "S11,S1", "linekat": "S-Bahn", "lineshortkat": "S", "short_name": "Poppenbüttel", "priority": "0" }, "geometry": { "type": "Point", "coordinates": [ 10.093827310143745, 53.652063412945452 ] } },
{ "type": "Feature", "properties": { "supplier": "Master", "id": 80950, "x": 3564407, "y": 5935411, "lines": "S21,S2,U3,S3,S31,S1", "linekat": "U-Bahn,S-Bahn", "lineshortkat": "U,S", "short_name": "Landungsbrücken", "priority": "0" }, "geometry": { "type": "Point", "coordinates": [ 9.970582655420898, 53.546237363544698 ] } },
{ "type": "Feature", "properties": { "supplier": "Master", "id": 80951, "x": 3563459, "y": 5935777, "lines": "S21,S2,S3,S31,S1", "linekat": "S-Bahn", "lineshortkat": "S", "short_name": "Reeperbahn", "priority": "0" }, "geometry": { "type": "Point", "coordinates": [ 9.95635735215455, 53.549640693581885 ] } },
{ "type": "Feature", "properties": { "supplier": "Master", "id": 80952, "x": 3562650, "y": 5935557, "lines": "S21,S2,S3,S31,S1", "linekat": "S-Bahn", "lineshortkat": "S", "short_name": "Königstraße", "priority": "0" }, "geometry": { "type": "Point", "coordinates": [ 9.944109479196506, 53.547761294888815 ] } },
{ "type": "Feature", "properties": { "supplier": "Master", "id": 80953, "x": 3561998, "y": 5936017, "lines": "S21,S2,S3,S31,S11,S1", "linekat": "S-Bahn", "lineshortkat": "S", "short_name": "Altona", "priority": "0" }, "geometry": { "type": "Point", "coordinates": [ 9.934365489560006, 53.551971137294998 ] } },
{ "type": "Feature", "properties": { "supplier": "Master", "id": 80954, "x": 3560463, "y": 5936906, "lines": "S11,S1", "linekat": "S-Bahn", "lineshortkat": "S", "short_name": "Bahrenfeld", "priority": "0" }, "geometry": { "type": "Point", "coordinates": [ 9.911380125918148, 53.560136585013488 ] } },
{ "type": "Feature", "properties": { "supplier": "Master", "id": 80955, "x": 3558726, "y": 5936782, "lines": "S11,S1", "linekat": "S-Bahn", "lineshortkat": "S", "short_name": "Othmarschen", "priority": "0" }, "geometry": { "type": "Point", "coordinates": [ 9.885147122090425, 53.559219558773194 ] } },
{ "type": "Feature", "properties": { "supplier": "Master", "id": 80956, "x": 3557166, "y": 5936662, "lines": "S11,S1", "linekat": "S-Bahn", "lineshortkat": "S", "short_name": "Klein Flottbek (Botanischer Garten)", "priority": "0" }, "geometry": { "type": "Point", "coordinates": [ 9.861586593388758, 53.558313487623792 ] } },
{ "type": "Feature", "properties": { "supplier": "Master", "id": 80957, "x": 3555846, "y": 5937019, "lines": "S11,S1", "linekat": "S-Bahn", "lineshortkat": "S", "short_name": "Hochkamp", "priority": "0" }, "geometry": { "type": "Point", "coordinates": [ 9.841733346911067, 53.561662701839722 ] } },
{ "type": "Feature", "properties": { "supplier": "Master", "id": 80958, "x": 3561976, "y": 5937846, "lines": "S21,S3,A1", "linekat": "AKN Niederflurfahrzeug,S-Bahn", "lineshortkat": "A,S", "short_name": "Diebsteich", "priority": "0" }, "geometry": { "type": "Point", "coordinates": [ 9.934395887693485, 53.568405087209008 ] } },
{ "type": "Feature", "properties": { "supplier": "Master", "id": 81950, "x": 3554089, "y": 5937314, "lines": "S11,S1", "linekat": "S-Bahn", "lineshortkat": "S", "short_name": "Blankenese", "priority": "0" }, "geometry": { "type": "Point", "coordinates": [ 9.815271400453007, 53.564496784233128 ] } },
{ "type": "Feature", "properties": { "supplier": "Master", "id": 81951, "x": 3554017, "y": 5938650, "lines": "S1", "linekat": "S-Bahn", "lineshortkat": "S", "short_name": "Iserbrook", "priority": "0" }, "geometry": { "type": "Point", "coordinates": [ 9.814415633932416, 53.576506900135655 ] } },
{ "type": "Feature", "properties": { "supplier": "Master", "id": 81952, "x": 3552917, "y": 5939156, "lines": "S1", "linekat": "S-Bahn", "lineshortkat": "S", "short_name": "Sülldorf", "priority": "0" }, "geometry": { "type": "Point", "coordinates": [ 9.797896522900865, 53.581164825475057 ] } },
{ "type": "Feature", "properties": { "supplier": "Master", "id": 81953, "x": 3550233, "y": 5939359, "lines": "S1", "linekat": "S-Bahn", "lineshortkat": "S", "short_name": "Rissen", "priority": "0" }, "geometry": { "type": "Point", "coordinates": [ 9.757408686810777, 53.583252207768631 ] } },
{ "type": "Feature", "properties": { "supplier": "Master", "id": 82950, "x": 3559222, "y": 5941628, "lines": "S21,S3", "linekat": "S-Bahn", "lineshortkat": "S", "short_name": "Elbgaustraße", "priority": "0" }, "geometry": { "type": "Point", "coordinates": [ 9.893549512211282, 53.602699703345621 ] } },
{ "type": "Feature", "properties": { "supplier": "Master", "id": 83950, "x": 3557504, "y": 5943071, "lines": "S3", "linekat": "S-Bahn", "lineshortkat": "S", "short_name": "Krupunder", "priority": "0" }, "geometry": { "type": "Point", "coordinates": [ 9.867866279233963, 53.615854537274195 ] } },
{ "type": "Feature", "properties": { "supplier": "Master", "id": 84950, "x": 3564305, "y": 5937367, "lines": "S21,U3,S3,S31,S11,A1,S1", "linekat": "AKN Niederflurfahrzeug,U-Bahn,S-Bahn", "lineshortkat": "A,U,S", "short_name": "Sternschanze (Messe)", "priority": "0" }, "geometry": { "type": "Point", "coordinates": [ 9.969445995719996, 53.563821982436757 ] } },
{ "type": "Feature", "properties": { "supplier": "Master", "id": 84951, "x": 3562958, "y": 5937143, "lines": "S21,S3,S31,A1,S11,S1", "linekat": "AKN Niederflurfahrzeug,S-Bahn", "lineshortkat": "A,S", "short_name": "Holstenstraße", "priority": "0" }, "geometry": { "type": "Point", "coordinates": [ 9.949074517660762, 53.561972748692149 ] } },
{ "type": "Feature", "properties": { "supplier": "Master", "id": 84952, "x": 3561726, "y": 5939120, "lines": "S21,S3,A1", "linekat": "AKN Niederflurfahrzeug,S-Bahn", "lineshortkat": "A,S", "short_name": "Langenfelde", "priority": "0" }, "geometry": { "type": "Point", "coordinates": [ 9.930874473206082, 53.579879855905027 ] } },
{ "type": "Feature", "properties": { "supplier": "Master", "id": 84953, "x": 3560892, "y": 5940211, "lines": "S21,S3,A1", "linekat": "AKN Niederflurfahrzeug,S-Bahn", "lineshortkat": "A,S", "short_name": "Stellingen (Arenen)", "priority": "0" }, "geometry": { "type": "Point", "coordinates": [ 9.918497065046635, 53.58977854519857 ] } },
{ "type": "Feature", "properties": { "supplier": "Master", "id": 84960, "x": 3560083, "y": 5940918, "lines": "S21,S3,A1", "linekat": "AKN Niederflurfahrzeug,S-Bahn", "lineshortkat": "A,S", "short_name": "Eidelstedt", "priority": "0" }, "geometry": { "type": "Point", "coordinates": [ 9.906417553655974, 53.596223318468887 ] } },
{ "type": "Feature", "properties": { "supplier": "Master", "id": 85950, "x": 3546758, "y": 5939173, "lines": "S1", "linekat": "S-Bahn", "lineshortkat": "S", "short_name": "Wedel", "priority": "0" }, "geometry": { "type": "Point", "coordinates": [ 9.704915444900951, 53.581902049786393 ] } },
{ "type": "Feature", "properties": { "supplier": "Master", "id": 90950, "x": 3568337, "y": 5943743, "lines": "U1,S11,S1", "linekat": "U-Bahn,S-Bahn", "lineshortkat": "U,S", "short_name": "Ohlsdorf", "priority": "0" }, "geometry": { "type": "Point", "coordinates": [ 10.031683457382355, 53.62059174501384 ] } },
{ "type": "Feature", "properties": { "supplier": "Master", "id": 98950, "x": 3555548, "y": 5944706, "lines": "S3", "linekat": "S-Bahn", "lineshortkat": "S", "short_name": "Halstenbek", "priority": "0" }, "geometry": { "type": "Point", "coordinates": [ 9.838604194350202, 53.630754076377691 ] } },
{ "type": "Feature", "properties": { "supplier": "Master", "id": 99651, "x": 3566665, "y": 5945046, "lines": "S1", "linekat": "S-Bahn", "lineshortkat": "S", "short_name": "Hamburg Airport (Flughafen)", "priority": "0" }, "geometry": { "type": "Point", "coordinates": [ 10.006698114392824, 53.632512491026446 ] } },
{ "type": "Feature", "properties": { "supplier": "Master", "id": 99950, "x": 3553920, "y": 5946185, "lines": "S3", "linekat": "S-Bahn", "lineshortkat": "S", "short_name": "Thesdorf", "priority": "0" }, "geometry": { "type": "Point", "coordinates": [ 9.814253770777622, 53.644211347929073 ] } },
{ "type": "Feature", "properties": { "supplier": "Master", "id": 8002556, "x": 3554474, "y": 5927330, "lines": "S3", "linekat": "S-Bahn", "lineshortkat": "S", "short_name": "Fischbek", "priority": "0" }, "geometry": { "type": "Point", "coordinates": [ 9.81934747176259, 53.474759484729987 ] } },
{ "type": "Feature", "properties": { "supplier": "Master", "id": 10950, "x": 3566873, "y": 5936170, "lines": "RB81,RB61,S21,DPF,IC,RB31,RB41,S3,RE70,RE80,RE5,RE1,S2,RE8,EC,A1,S11,RE,S31,RE4,S1,RE7,ICE,RE3,IRE", "linekat": "AKN Niederflurfahrzeug,RegionalExpress,InterCityExpress,Fernreisezug,Interregio-Express,S-Bahn,EuroCity,RegionalBahn,InterCity", "lineshortkat": "A,RE,ICE,DPF,IRE,S,EC,RB,IC", "short_name": "Hamburg Hbf", "priority": "0" }, "geometry": { "type": "Point", "coordinates": [ 10.007941060199293, 53.552748053795256 ] } },
{ "type": "Feature", "properties": { "supplier": "Master", "id": 10951, "x": 3567933, "y": 5935500, "lines": "S3,S31", "linekat": "S-Bahn", "lineshortkat": "S", "short_name": "Hammerbrook (City Süd)", "priority": "0" }, "geometry": { "type": "Point", "coordinates": [ 10.023786702857736, 53.546593138070989 ] } },
{ "type": "Feature", "properties": { "supplier": "Master", "id": 10952, "x": 3567978, "y": 5936215, "lines": "U4,S21,S2,U3,U2,S31,S11,S1", "linekat": "U-Bahn,S-Bahn", "lineshortkat": "U,S", "short_name": "Berliner Tor", "priority": "0" }, "geometry": { "type": "Point", "coordinates": [ 10.024620720032612, 53.553010570733306 ] } },
{ "type": "Feature", "properties": { "supplier": "Master", "id": 10953, "x": 3568845, "y": 5937146, "lines": "S11,S1", "linekat": "S-Bahn", "lineshortkat": "S", "short_name": "Landwehr", "priority": "0" }, "geometry": { "type": "Point", "coordinates": [ 10.037905016486109, 53.561261382820014 ] } },
{ "type": "Feature", "properties": { "supplier": "Master", "id": 10954, "x": 3569313, "y": 5934607, "lines": "S21,S2", "linekat": "S-Bahn", "lineshortkat": "S", "short_name": "Rothenburgsort", "priority": "0" }, "geometry": { "type": "Point", "coordinates": [ 10.044404433936316, 53.538390731538357 ] } },
{ "type": "Feature", "properties": { "supplier": "Master", "id": 11943, "x": 3567940, "y": 5934234, "lines": "U4,S3,S31", "linekat": "U-Bahn,S-Bahn", "lineshortkat": "U,S", "short_name": "Elbbrücken", "priority": "0" }, "geometry": { "type": "Point", "coordinates": [ 10.023617695056355, 53.535219020230308 ] } },
{ "type": "Feature", "properties": { "supplier": "Master", "id": 11950, "x": 3566009, "y": 5936157, "lines": "U4,S21,S2,U2,S3,U1,S31,S1", "linekat": "U-Bahn,S-Bahn", "lineshortkat": "U,S", "short_name": "Jungfernstieg", "priority": "0" }, "geometry": { "type": "Point", "coordinates": [ 9.994904028430213, 53.552740477253217 ] } },
{ "type": "Feature", "properties": { "supplier": "Master", "id": 11951, "x": 3565654, "y": 5937066, "lines": "S21,S3,S31,S11,S1", "linekat": "S-Bahn", "lineshortkat": "S", "short_name": "Dammtor (Messe\/CCH)", "priority": "0" }, "geometry": { "type": "Point", "coordinates": [ 9.989739201279793, 53.560951076556385 ] } },
{ "type": "Feature", "properties": { "supplier": "Master", "id": 11952, "x": 3565352, "y": 5935781, "lines": "S21,S2,S3,S31,S1", "linekat": "S-Bahn", "lineshortkat": "S", "short_name": "Stadthausbrücke", "priority": "0" }, "geometry": { "type": "Point", "coordinates": [ 9.984914012889222, 53.549444711251098 ] } },
{ "type": "Feature", "properties": { "supplier": "Master", "id": 21950, "x": 3572815, "y": 5932145, "lines": "S21,S2", "linekat": "S-Bahn", "lineshortkat": "S", "short_name": "Billwerder-Moorfleet", "priority": "0" }, "geometry": { "type": "Point", "coordinates": [ 10.096644302507215, 53.51580040982784 ] } },
{ "type": "Feature", "properties": { "supplier": "Master", "id": 21951, "x": 3575155, "y": 5930206, "lines": "S21,S2", "linekat": "S-Bahn", "lineshortkat": "S", "short_name": "Mittlerer Landweg", "priority": "0" }, "geometry": { "type": "Point", "coordinates": [ 10.131449030433119, 53.498052834004135 ] } },
{ "type": "Feature", "properties": { "supplier": "Master", "id": 21952, "x": 3578488, "y": 5929141, "lines": "S21,S2", "linekat": "S-Bahn", "lineshortkat": "S", "short_name": "Nettelnburg", "priority": "0" }, "geometry": { "type": "Point", "coordinates": [ 10.181396863934403, 53.48799958209068 ] } },
{ "type": "Feature", "properties": { "supplier": "Master", "id": 21953, "x": 3576961, "y": 5929392, "lines": "S21,S2", "linekat": "S-Bahn", "lineshortkat": "S", "short_name": "Allermöhe", "priority": "0" }, "geometry": { "type": "Point", "coordinates": [ 10.158458398213497, 53.490479655166219 ] } },
{ "type": "Feature", "properties": { "supplier": "Master", "id": 25950, "x": 3580115, "y": 5929374, "lines": "S21,RE1,S2,IC,EC", "linekat": "RegionalExpress,S-Bahn,EuroCity,InterCity", "lineshortkat": "RE,S,EC,IC", "short_name": "Bergedorf", "priority": "0" }, "geometry": { "type": "Point", "coordinates": [ 10.205962095038972, 53.489847746990698 ] } },
{ "type": "Feature", "properties": { "supplier": "Master", "id": 25951, "x": 3583202, "y": 5931489, "lines": "S21", "linekat": "S-Bahn", "lineshortkat": "S", "short_name": "Reinbek", "priority": "0" }, "geometry": { "type": "Point", "coordinates": [ 10.253020079164664, 53.508368140321153 ] } },
{ "type": "Feature", "properties": { "supplier": "Master", "id": 25952, "x": 3584827, "y": 5932881, "lines": "S21", "linekat": "S-Bahn", "lineshortkat": "S", "short_name": "Wohltorf", "priority": "0" }, "geometry": { "type": "Point", "coordinates": [ 10.277883238334876, 53.52061289676125 ] } },
{ "type": "Feature", "properties": { "supplier": "Master", "id": 25953, "x": 3587243, "y": 5933974, "lines": "S21", "linekat": "S-Bahn", "lineshortkat": "S", "short_name": "Aumühle", "priority": "0" }, "geometry": { "type": "Point", "coordinates": [ 10.314603569917161, 53.530035947198144 ] } },
{ "type": "Feature", "properties": { "supplier": "Master", "id": 40950, "x": 3565178, "y": 5925891, "lines": "S3,S31", "linekat": "S-Bahn", "lineshortkat": "S", "short_name": "Harburg Rathaus", "priority": "0" }, "geometry": { "type": "Point", "coordinates": [ 9.980235776897583, 53.460617009141799 ] } },
{ "type": "Feature", "properties": { "supplier": "Master", "id": 41950, "x": 3558309, "y": 5927178, "lines": "S3,S31", "linekat": "S-Bahn", "lineshortkat": "S", "short_name": "Neuwiedenthal", "priority": "0" }, "geometry": { "type": "Point", "coordinates": [ 9.877070057299683, 53.472983672081661 ] } },
{ "type": "Feature", "properties": { "supplier": "Master", "id": 41951, "x": 3556635, "y": 5927272, "lines": "S3,S31", "linekat": "S-Bahn", "lineshortkat": "S", "short_name": "Neugraben", "priority": "0" }, "geometry": { "type": "Point", "coordinates": [ 9.851879419698424, 53.47401067256326 ] } },
{ "type": "Feature", "properties": { "supplier": "Master", "id": 42950, "x": 3564036, "y": 5926408, "lines": "S3,S31", "linekat": "S-Bahn", "lineshortkat": "S", "short_name": "Heimfeld", "priority": "0" }, "geometry": { "type": "Point", "coordinates": [ 9.963149939645128, 53.465401562533536 ] } },
{ "type": "Feature", "properties": { "supplier": "Master", "id": 49950, "x": 3565919, "y": 5925485, "lines": "S3,S31", "linekat": "S-Bahn", "lineshortkat": "S", "short_name": "Harburg", "priority": "0" }, "geometry": { "type": "Point", "coordinates": [ 9.991305282839523, 53.456877492570079 ] } },
{ "type": "Feature", "properties": { "supplier": "Master", "id": 51988, "x": 3552440, "y": 5927115, "lines": "S3", "linekat": "S-Bahn", "lineshortkat": "S", "short_name": "Neu Wulmstorf", "priority": "0" }, "geometry": { "type": "Point", "coordinates": [ 9.788681321971362, 53.473034121887977 ] } },
{ "type": "Feature", "properties": { "supplier": "Master", "id": 51989, "x": 3545761, "y": 5926767, "lines": "RB33,S3,SEV,RE5", "linekat": "RegionalExpress,S-Bahn,Stadtbus,NordBahn", "lineshortkat": "RE,S,Bus,DPN", "short_name": "Buxtehude", "priority": "0" }, "geometry": { "type": "Point", "coordinates": [ 9.68805269289056, 53.470529541790398 ] } },
{ "type": "Feature", "properties": { "supplier": "Master", "id": 54950, "x": 3567295, "y": 5932730, "lines": "S3,S31", "linekat": "S-Bahn", "lineshortkat": "S", "short_name": "Veddel (BallinStadt)", "priority": "0" }, "geometry": { "type": "Point", "coordinates": [ 10.013568431828162, 53.521790564837183 ] } },
{ "type": "Feature", "properties": { "supplier": "Master", "id": 54951, "x": 3566899, "y": 5930162, "lines": "S3,S31", "linekat": "S-Bahn", "lineshortkat": "S", "short_name": "Wilhelmsburg", "priority": "0" }, "geometry": { "type": "Point", "coordinates": [ 10.007051307555672, 53.498770985925418 ] } },
{ "type": "Feature", "properties": { "supplier": "Master", "id": 60950, "x": 3570075, "y": 5937572, "lines": "RB81,S11,RE80,S1,SEV", "linekat": "RegionalExpress,S-Bahn,Stadtbus,RegionalBahn", "lineshortkat": "RE,S,Bus,RB", "short_name": "Hasselbrook", "priority": "0" }, "geometry": { "type": "Point", "coordinates": [ 10.056559607427028, 53.564925744053248 ] } },
{ "type": "Feature", "properties": { "supplier": "Master", "id": 60951, "x": 3570266, "y": 5938177, "lines": "U1,S11,S1", "linekat": "U-Bahn,S-Bahn", "lineshortkat": "U,S", "short_name": "Wandsbeker Chaussee", "priority": "0" }, "geometry": { "type": "Point", "coordinates": [ 10.05957773775107, 53.570335214781267 ] } },
{ "type": "Feature", "properties": { "supplier": "Master", "id": 60952, "x": 3570106, "y": 5938860, "lines": "S11,S1", "linekat": "S-Bahn", "lineshortkat": "S", "short_name": "Friedrichsberg", "priority": "0" }, "geometry": { "type": "Point", "coordinates": [ 10.057316189633161, 53.576492279976314 ] } },
{ "type": "Feature", "properties": { "supplier": "Master", "id": 61950, "x": 3570704, "y": 5933861, "lines": "S21,S2", "linekat": "S-Bahn", "lineshortkat": "S", "short_name": "Tiefstack", "priority": "0" }, "geometry": { "type": "Point", "coordinates": [ 10.065213182946872, 53.531503891238394 ] } },
{ "type": "Feature", "properties": { "supplier": "Master", "id": 70950, "x": 3569236, "y": 5940061, "lines": "U3,S11,S1", "linekat": "U-Bahn,S-Bahn", "lineshortkat": "U,S", "short_name": "Barmbek", "priority": "0" }, "geometry": { "type": "Point", "coordinates": [ 10.044450354546118, 53.58739683285539 ] } },
{ "type": "Feature", "properties": { "supplier": "Master", "id": 70951, "x": 3568621, "y": 5941193, "lines": "S11,S1", "linekat": "S-Bahn", "lineshortkat": "S", "short_name": "Alte Wöhr (Stadtpark)", "priority": "0" }, "geometry": { "type": "Point", "coordinates": [ 10.035413763012672, 53.59764687117179 ] } },
{ "type": "Feature", "properties": { "supplier": "Master", "id": 70952, "x": 3568450, "y": 5942116, "lines": "S11,S1", "linekat": "S-Bahn", "lineshortkat": "S", "short_name": "Rübenkamp (City Nord)", "priority": "0" }, "geometry": { "type": "Point", "coordinates": [ 10.033033794081875, 53.605960940293478 ] } },
{ "type": "Feature", "properties": { "supplier": "Master", "id": 71950, "x": 3569793, "y": 5945087, "lines": "S11,S1", "linekat": "S-Bahn", "lineshortkat": "S", "short_name": "Kornweg (Klein Borstel)", "priority": "0" }, "geometry": { "type": "Point", "coordinates": [ 10.053984502833687, 53.632473607013765 ] } },
{ "type": "Feature", "properties": { "supplier": "Master", "id": 71951, "x": 3570685, "y": 5945441, "lines": "S11,S1", "linekat": "S-Bahn", "lineshortkat": "S", "short_name": "Hoheneichen", "priority": "0" }, "geometry": { "type": "Point", "coordinates": [ 10.067546600866851, 53.6355341579726 ] } },
{ "type": "Feature", "properties": { "supplier": "Master", "id": 71952, "x": 3571686, "y": 5946107, "lines": "S11,S1", "linekat": "S-Bahn", "lineshortkat": "S", "short_name": "Wellingsbüttel", "priority": "0" }, "geometry": { "type": "Point", "coordinates": [ 10.08283013955074, 53.641381037720755 ] } },
{ "type": "Feature", "properties": { "supplier": "Master", "id": 71953, "x": 3572395, "y": 5947307, "lines": "S11,S1", "linekat": "S-Bahn", "lineshortkat": "S", "short_name": "Poppenbüttel", "priority": "0" }, "geometry": { "type": "Point", "coordinates": [ 10.093827310143745, 53.652063412945452 ] } },
{ "type": "Feature", "properties": { "supplier": "Master", "id": 80950, "x": 3564407, "y": 5935411, "lines": "S21,S2,U3,S3,S31,S1", "linekat": "U-Bahn,S-Bahn", "lineshortkat": "U,S", "short_name": "Landungsbrücken", "priority": "0" }, "geometry": { "type": "Point", "coordinates": [ 9.970582655420898, 53.546237363544698 ] } },
{ "type": "Feature", "properties": { "supplier": "Master", "id": 80951, "x": 3563459, "y": 5935777, "lines": "S21,S2,S3,S31,S1", "linekat": "S-Bahn", "lineshortkat": "S", "short_name": "Reeperbahn", "priority": "0" }, "geometry": { "type": "Point", "coordinates": [ 9.95635735215455, 53.549640693581885 ] } },
{ "type": "Feature", "properties": { "supplier": "Master", "id": 80952, "x": 3562650, "y": 5935557, "lines": "S21,S2,S3,S31,S1", "linekat": "S-Bahn", "lineshortkat": "S", "short_name": "Königstraße", "priority": "0" }, "geometry": { "type": "Point", "coordinates": [ 9.944109479196506, 53.547761294888815 ] } },
{ "type": "Feature", "properties": { "supplier": "Master", "id": 80953, "x": 3561998, "y": 5936017, "lines": "S21,S2,S3,S31,S11,S1", "linekat": "S-Bahn", "lineshortkat": "S", "short_name": "Altona", "priority": "0" }, "geometry": { "type": "Point", "coordinates": [ 9.934365489560006, 53.551971137294998 ] } },
{ "type": "Feature", "properties": { "supplier": "Master", "id": 80954, "x": 3560463, "y": 5936906, "lines": "S11,S1", "linekat": "S-Bahn", "lineshortkat": "S", "short_name": "Bahrenfeld", "priority": "0" }, "geometry": { "type": "Point", "coordinates": [ 9.911380125918148, 53.560136585013488 ] } },
{ "type": "Feature", "properties": { "supplier": "Master", "id": 80955, "x": 3558726, "y": 5936782, "lines": "S11,S1", "linekat": "S-Bahn", "lineshortkat": "S", "short_name": "Othmarschen", "priority": "0" }, "geometry": { "type": "Point", "coordinates": [ 9.885147122090425, 53.559219558773194 ] } },
{ "type": "Feature", "properties": { "supplier": "Master", "id": 80956, "x": 3557166, "y": 5936662, "lines": "S11,S1", "linekat": "S-Bahn", "lineshortkat": "S", "short_name": "Klein Flottbek (Botanischer Garten)", "priority": "0" }, "geometry": { "type": "Point", "coordinates": [ 9.861586593388758, 53.558313487623792 ] } },
{ "type": "Feature", "properties": { "supplier": "Master", "id": 80957, "x": 3555846, "y": 5937019, "lines": "S11,S1", "linekat": "S-Bahn", "lineshortkat": "S", "short_name": "Hochkamp", "priority": "0" }, "geometry": { "type": "Point", "coordinates": [ 9.841733346911067, 53.561662701839722 ] } },
{ "type": "Feature", "properties": { "supplier": "Master", "id": 80958, "x": 3561976, "y": 5937846, "lines": "S21,S3,A1", "linekat": "AKN Niederflurfahrzeug,S-Bahn", "lineshortkat": "A,S", "short_name": "Diebsteich", "priority": "0" }, "geometry": { "type": "Point", "coordinates": [ 9.934395887693485, 53.568405087209008 ] } },
{ "type": "Feature", "properties": { "supplier": "Master", "id": 81950, "x": 3554089, "y": 5937314, "lines": "S11,S1", "linekat": "S-Bahn", "lineshortkat": "S", "short_name": "Blankenese", "priority": "0" }, "geometry": { "type": "Point", "coordinates": [ 9.815271400453007, 53.564496784233128 ] } },
{ "type": "Feature", "properties": { "supplier": "Master", "id": 81951, "x": 3554017, "y": 5938650, "lines": "S1", "linekat": "S-Bahn", "lineshortkat": "S", "short_name": "Iserbrook", "priority": "0" }, "geometry": { "type": "Point", "coordinates": [ 9.814415633932416, 53.576506900135655 ] } },
{ "type": "Feature", "properties": { "supplier": "Master", "id": 81952, "x": 3552917, "y": 5939156, "lines": "S1", "linekat": "S-Bahn", "lineshortkat": "S", "short_name": "Sülldorf", "priority": "0" }, "geometry": { "type": "Point", "coordinates": [ 9.797896522900865, 53.581164825475057 ] } },
{ "type": "Feature", "properties": { "supplier": "Master", "id": 81953, "x": 3550233, "y": 5939359, "lines": "S1", "linekat": "S-Bahn", "lineshortkat": "S", "short_name": "Rissen", "priority": "0" }, "geometry": { "type": "Point", "coordinates": [ 9.757408686810777, 53.583252207768631 ] } },
{ "type": "Feature", "properties": { "supplier": "Master", "id": 82950, "x": 3559222, "y": 5941628, "lines": "S21,S3", "linekat": "S-Bahn", "lineshortkat": "S", "short_name": "Elbgaustraße", "priority": "0" }, "geometry": { "type": "Point", "coordinates": [ 9.893549512211282, 53.602699703345621 ] } },
{ "type": "Feature", "properties": { "supplier": "Master", "id": 83950, "x": 3557504, "y": 5943071, "lines": "S3", "linekat": "S-Bahn", "lineshortkat": "S", "short_name": "Krupunder", "priority": "0" }, "geometry": { "type": "Point", "coordinates": [ 9.867866279233963, 53.615854537274195 ] } },
{ "type": "Feature", "properties": { "supplier": "Master", "id": 84950, "x": 3564305, "y": 5937367, "lines": "S21,U3,S3,S31,S11,A1,S1", "linekat": "AKN Niederflurfahrzeug,U-Bahn,S-Bahn", "lineshortkat": "A,U,S", "short_name": "Sternschanze (Messe)", "priority": "0" }, "geometry": { "type": "Point", "coordinates": [ 9.969445995719996, 53.563821982436757 ] } },
{ "type": "Feature", "properties": { "supplier": "Master", "id": 84951, "x": 3562958, "y": 5937143, "lines": "S21,S3,S31,A1,S11,S1", "linekat": "AKN Niederflurfahrzeug,S-Bahn", "lineshortkat": "A,S", "short_name": "Holstenstraße", "priority": "0" }, "geometry": { "type": "Point", "coordinates": [ 9.949074517660762, 53.561972748692149 ] } },
{ "type": "Feature", "properties": { "supplier": "Master", "id": 84952, "x": 3561726, "y": 5939120, "lines": "S21,S3,A1", "linekat": "AKN Niederflurfahrzeug,S-Bahn", "lineshortkat": "A,S", "short_name": "Langenfelde", "priority": "0" }, "geometry": { "type": "Point", "coordinates": [ 9.930874473206082, 53.579879855905027 ] } },
{ "type": "Feature", "properties": { "supplier": "Master", "id": 84953, "x": 3560892, "y": 5940211, "lines": "S21,S3,A1", "linekat": "AKN Niederflurfahrzeug,S-Bahn", "lineshortkat": "A,S", "short_name": "Stellingen (Arenen)", "priority": "0" }, "geometry": { "type": "Point", "coordinates": [ 9.918497065046635, 53.58977854519857 ] } },
{ "type": "Feature", "properties": { "supplier": "Master", "id": 84960, "x": 3560083, "y": 5940918, "lines": "S21,S3,A1", "linekat": "AKN Niederflurfahrzeug,S-Bahn", "lineshortkat": "A,S", "short_name": "Eidelstedt", "priority": "0" }, "geometry": { "type": "Point", "coordinates": [ 9.906417553655974, 53.596223318468887 ] } },
{ "type": "Feature", "properties": { "supplier": "Master", "id": 85950, "x": 3546758, "y": 5939173, "lines": "S1", "linekat": "S-Bahn", "lineshortkat": "S", "short_name": "Wedel", "priority": "0" }, "geometry": { "type": "Point", "coordinates": [ 9.704915444900951, 53.581902049786393 ] } },
{ "type": "Feature", "properties": { "supplier": "Master", "id": 90950, "x": 3568337, "y": 5943743, "lines": "U1,S11,S1", "linekat": "U-Bahn,S-Bahn", "lineshortkat": "U,S", "short_name": "Ohlsdorf", "priority": "0" }, "geometry": { "type": "Point", "coordinates": [ 10.031683457382355, 53.62059174501384 ] } },
{ "type": "Feature", "properties": { "supplier": "Master", "id": 98950, "x": 3555548, "y": 5944706, "lines": "S3", "linekat": "S-Bahn", "lineshortkat": "S", "short_name": "Halstenbek", "priority": "0" }, "geometry": { "type": "Point", "coordinates": [ 9.838604194350202, 53.630754076377691 ] } },
{ "type": "Feature", "properties": { "supplier": "Master", "id": 99651, "x": 3566665, "y": 5945046, "lines": "S1", "linekat": "S-Bahn", "lineshortkat": "S", "short_name": "Hamburg Airport (Flughafen)", "priority": "0" }, "geometry": { "type": "Point", "coordinates": [ 10.006698114392824, 53.632512491026446 ] } },
{ "type": "Feature", "properties": { "supplier": "Master", "id": 99950, "x": 3553920, "y": 5946185, "lines": "S3", "linekat": "S-Bahn", "lineshortkat": "S", "short_name": "Thesdorf", "priority": "0" }, "geometry": { "type": "Point", "coordinates": [ 9.814253770777622, 53.644211347929073 ] } },
{ "type": "Feature", "properties": { "supplier": "Master", "id": 99951, "x": 3552856, "y": 5947365, "lines": "RE,RE7,RB61,S3,RE70,RB71,SEV", "linekat": "RegionalExpress,S-Bahn,Stadtbus,RegionalBahn", "lineshortkat": "RE,S,Bus,RB", "short_name": "Pinneberg", "priority": "0" }, "geometry": { "type": "Point", "coordinates": [ 9.798367109262937, 53.654920863038377 ] } },
{ "type": "Feature", "properties": { "supplier": "Master", "id": 8002556, "x": 3554474, "y": 5927330, "lines": "S3", "linekat": "S-Bahn", "lineshortkat": "S", "short_name": "Fischbek", "priority": "0" }, "geometry": { "type": "Point", "coordinates": [ 9.81934747176259, 53.474759484729987 ] } },
{ "type": "Feature", "properties": { "supplier": "Master", "id": 10950, "x": 3566873, "y": 5936170, "lines": "RB81,RB61,S21,DPF,IC,RB31,RB41,S3,RE70,RE80,RE5,RE1,S2,RE8,EC,A1,S11,RE,S31,RE4,S1,RE7,ICE,RE3,IRE", "linekat": "AKN Niederflurfahrzeug,RegionalExpress,InterCityExpress,Fernreisezug,Interregio-Express,S-Bahn,EuroCity,RegionalBahn,InterCity", "lineshortkat": "A,RE,ICE,DPF,IRE,S,EC,RB,IC", "short_name": "Hamburg Hbf", "priority": "0" }, "geometry": { "type": "Point", "coordinates": [ 10.007941060199293, 53.552748053795256 ] } },
{ "type": "Feature", "properties": { "supplier": "Master", "id": 10951, "x": 3567933, "y": 5935500, "lines": "S3,S31", "linekat": "S-Bahn", "lineshortkat": "S", "short_name": "Hammerbrook (City Süd)", "priority": "0" }, "geometry": { "type": "Point", "coordinates": [ 10.023786702857736, 53.546593138070989 ] } },
{ "type": "Feature", "properties": { "supplier": "Master", "id": 10952, "x": 3567978, "y": 5936215, "lines": "U4,S21,S2,U3,U2,S31,S11,S1", "linekat": "U-Bahn,S-Bahn", "lineshortkat": "U,S", "short_name": "Berliner Tor", "priority": "0" }, "geometry": { "type": "Point", "coordinates": [ 10.024620720032612, 53.553010570733306 ] } },
{ "type": "Feature", "properties": { "supplier": "Master", "id": 10953, "x": 3568845, "y": 5937146, "lines": "S11,S1", "linekat": "S-Bahn", "lineshortkat": "S", "short_name": "Landwehr", "priority": "0" }, "geometry": { "type": "Point", "coordinates": [ 10.037905016486109, 53.561261382820014 ] } },
{ "type": "Feature", "properties": { "supplier": "Master", "id": 10954, "x": 3569313, "y": 5934607, "lines": "S21,S2", "linekat": "S-Bahn", "lineshortkat": "S", "short_name": "Rothenburgsort", "priority": "0" }, "geometry": { "type": "Point", "coordinates": [ 10.044404433936316, 53.538390731538357 ] } },
{ "type": "Feature", "properties": { "supplier": "Master", "id": 11943, "x": 3567940, "y": 5934234, "lines": "U4,S3,S31", "linekat": "U-Bahn,S-Bahn", "lineshortkat": "U,S", "short_name": "Elbbrücken", "priority": "0" }, "geometry": { "type": "Point", "coordinates": [ 10.023617695056355, 53.535219020230308 ] } },
{ "type": "Feature", "properties": { "supplier": "Master", "id": 11950, "x": 3566009, "y": 5936157, "lines": "U4,S21,S2,U2,S3,U1,S31,S1", "linekat": "U-Bahn,S-Bahn", "lineshortkat": "U,S", "short_name": "Jungfernstieg", "priority": "0" }, "geometry": { "type": "Point", "coordinates": [ 9.994904028430213, 53.552740477253217 ] } },
{ "type": "Feature", "properties": { "supplier": "Master", "id": 11951, "x": 3565654, "y": 5937066, "lines": "S21,S3,S31,S11,S1", "linekat": "S-Bahn", "lineshortkat": "S", "short_name": "Dammtor (Messe\/CCH)", "priority": "0" }, "geometry": { "type": "Point", "coordinates": [ 9.989739201279793, 53.560951076556385 ] } },
{ "type": "Feature", "properties": { "supplier": "Master", "id": 11952, "x": 3565352, "y": 5935781, "lines": "S21,S2,S3,S31,S1", "linekat": "S-Bahn", "lineshortkat": "S", "short_name": "Stadthausbrücke", "priority": "0" }, "geometry": { "type": "Point", "coordinates": [ 9.984914012889222, 53.549444711251098 ] } },
{ "type": "Feature", "properties": { "supplier": "Master", "id": 21950, "x": 3572815, "y": 5932145, "lines": "S21,S2", "linekat": "S-Bahn", "lineshortkat": "S", "short_name": "Billwerder-Moorfleet", "priority": "0" }, "geometry": { "type": "Point", "coordinates": [ 10.096644302507215, 53.51580040982784 ] } },
{ "type": "Feature", "properties": { "supplier": "Master", "id": 21951, "x": 3575155, "y": 5930206, "lines": "S21,S2", "linekat": "S-Bahn", "lineshortkat": "S", "short_name": "Mittlerer Landweg", "priority": "0" }, "geometry": { "type": "Point", "coordinates": [ 10.131449030433119, 53.498052834004135 ] } },
{ "type": "Feature", "properties": { "supplier": "Master", "id": 21952, "x": 3578488, "y": 5929141, "lines": "S21,S2", "linekat": "S-Bahn", "lineshortkat": "S", "short_name": "Nettelnburg", "priority": "0" }, "geometry": { "type": "Point", "coordinates": [ 10.181396863934403, 53.48799958209068 ] } },
{ "type": "Feature", "properties": { "supplier": "Master", "id": 21953, "x": 3576961, "y": 5929392, "lines": "S21,S2", "linekat": "S-Bahn", "lineshortkat": "S", "short_name": "Allermöhe", "priority": "0" }, "geometry": { "type": "Point", "coordinates": [ 10.158458398213497, 53.490479655166219 ] } },
{ "type": "Feature", "properties": { "supplier": "Master", "id": 25950, "x": 3580115, "y": 5929374, "lines": "S21,RE1,S2,IC,EC", "linekat": "RegionalExpress,S-Bahn,EuroCity,InterCity", "lineshortkat": "RE,S,EC,IC", "short_name": "Bergedorf", "priority": "0" }, "geometry": { "type": "Point", "coordinates": [ 10.205962095038972, 53.489847746990698 ] } },
{ "type": "Feature", "properties": { "supplier": "Master", "id": 25951, "x": 3583202, "y": 5931489, "lines": "S21", "linekat": "S-Bahn", "lineshortkat": "S", "short_name": "Reinbek", "priority": "0" }, "geometry": { "type": "Point", "coordinates": [ 10.253020079164664, 53.508368140321153 ] } },
{ "type": "Feature", "properties": { "supplier": "Master", "id": 25952, "x": 3584827, "y": 5932881, "lines": "S21", "linekat": "S-Bahn", "lineshortkat": "S", "short_name": "Wohltorf", "priority": "0" }, "geometry": { "type": "Point", "coordinates": [ 10.277883238334876, 53.52061289676125 ] } },
{ "type": "Feature", "properties": { "supplier": "Master", "id": 25953, "x": 3587243, "y": 5933974, "lines": "S21", "linekat": "S-Bahn", "lineshortkat": "S", "short_name": "Aumühle", "priority": "0" }, "geometry": { "type": "Point", "coordinates": [ 10.314603569917161, 53.530035947198144 ] } },
{ "type": "Feature", "properties": { "supplier": "Master", "id": 40950, "x": 3565178, "y": 5925891, "lines": "S3,S31", "linekat": "S-Bahn", "lineshortkat": "S", "short_name": "Harburg Rathaus", "priority": "0" }, "geometry": { "type": "Point", "coordinates": [ 9.980235776897583, 53.460617009141799 ] } },
{ "type": "Feature", "properties": { "supplier": "Master", "id": 41950, "x": 3558309, "y": 5927178, "lines": "S3,S31", "linekat": "S-Bahn", "lineshortkat": "S", "short_name": "Neuwiedenthal", "priority": "0" }, "geometry": { "type": "Point", "coordinates": [ 9.877070057299683, 53.472983672081661 ] } },
{ "type": "Feature", "properties": { "supplier": "Master", "id": 41951, "x": 3556635, "y": 5927272, "lines": "S3,S31", "linekat": "S-Bahn", "lineshortkat": "S", "short_name": "Neugraben", "priority": "0" }, "geometry": { "type": "Point", "coordinates": [ 9.851879419698424, 53.47401067256326 ] } },
{ "type": "Feature", "properties": { "supplier": "Master", "id": 42950, "x": 3564036, "y": 5926408, "lines": "S3,S31", "linekat": "S-Bahn", "lineshortkat": "S", "short_name": "Heimfeld", "priority": "0" }, "geometry": { "type": "Point", "coordinates": [ 9.963149939645128, 53.465401562533536 ] } },
{ "type": "Feature", "properties": { "supplier": "Master", "id": 49950, "x": 3565919, "y": 5925485, "lines": "S3,S31", "linekat": "S-Bahn", "lineshortkat": "S", "short_name": "Harburg", "priority": "0" }, "geometry": { "type": "Point", "coordinates": [ 9.991305282839523, 53.456877492570079 ] } },
{ "type": "Feature", "properties": { "supplier": "Master", "id": 51988, "x": 3552440, "y": 5927115, "lines": "S3", "linekat": "S-Bahn", "lineshortkat": "S", "short_name": "Neu Wulmstorf", "priority": "0" }, "geometry": { "type": "Point", "coordinates": [ 9.788681321971362, 53.473034121887977 ] } },
{ "type": "Feature", "properties": { "supplier": "Master", "id": 51989, "x": 3545761, "y": 5926767, "lines": "RB33,S3,SEV,RE5", "linekat": "RegionalExpress,S-Bahn,Stadtbus,NordBahn", "lineshortkat": "RE,S,Bus,DPN", "short_name": "Buxtehude", "priority": "0" }, "geometry": { "type": "Point", "coordinates": [ 9.68805269289056, 53.470529541790398 ] } },
{ "type": "Feature", "properties": { "supplier": "Master", "id": 54950, "x": 3567295, "y": 5932730, "lines": "S3,S31", "linekat": "S-Bahn", "lineshortkat": "S", "short_name": "Veddel (BallinStadt)", "priority": "0" }, "geometry": { "type": "Point", "coordinates": [ 10.013568431828162, 53.521790564837183 ] } },
{ "type": "Feature", "properties": { "supplier": "Master", "id": 54951, "x": 3566899, "y": 5930162, "lines": "S3,S31", "linekat": "S-Bahn", "lineshortkat": "S", "short_name": "Wilhelmsburg", "priority": "0" }, "geometry": { "type": "Point", "coordinates": [ 10.007051307555672, 53.498770985925418 ] } },
{ "type": "Feature", "properties": { "supplier": "Master", "id": 60950, "x": 3570075, "y": 5937572, "lines": "RB81,S11,RE80,S1,SEV", "linekat": "RegionalExpress,S-Bahn,Stadtbus,RegionalBahn", "lineshortkat": "RE,S,Bus,RB", "short_name": "Hasselbrook", "priority": "0" }, "geometry": { "type": "Point", "coordinates": [ 10.056559607427028, 53.564925744053248 ] } },
{ "type": "Feature", "properties": { "supplier": "Master", "id": 60951, "x": 3570266, "y": 5938177, "lines": "U1,S11,S1", "linekat": "U-Bahn,S-Bahn", "lineshortkat": "U,S", "short_name": "Wandsbeker Chaussee", "priority": "0" }, "geometry": { "type": "Point", "coordinates": [ 10.05957773775107, 53.570335214781267 ] } },
{ "type": "Feature", "properties": { "supplier": "Master", "id": 60952, "x": 3570106, "y": 5938860, "lines": "S11,S1", "linekat": "S-Bahn", "lineshortkat": "S", "short_name": "Friedrichsberg", "priority": "0" }, "geometry": { "type": "Point", "coordinates": [ 10.057316189633161, 53.576492279976314 ] } },
{ "type": "Feature", "properties": { "supplier": "Master", "id": 61950, "x": 3570704, "y": 5933861, "lines": "S21,S2", "linekat": "S-Bahn", "lineshortkat": "S", "short_name": "Tiefstack", "priority": "0" }, "geometry": { "type": "Point", "coordinates": [ 10.065213182946872, 53.531503891238394 ] } },
{ "type": "Feature", "properties": { "supplier": "Master", "id": 70950, "x": 3569236, "y": 5940061, "lines": "U3,S11,S1", "linekat": "U-Bahn,S-Bahn", "lineshortkat": "U,S", "short_name": "Barmbek", "priority": "0" }, "geometry": { "type": "Point", "coordinates": [ 10.044450354546118, 53.58739683285539 ] } },
{ "type": "Feature", "properties": { "supplier": "Master", "id": 70951, "x": 3568621, "y": 5941193, "lines": "S11,S1", "linekat": "S-Bahn", "lineshortkat": "S", "short_name": "Alte Wöhr (Stadtpark)", "priority": "0" }, "geometry": { "type": "Point", "coordinates": [ 10.035413763012672, 53.59764687117179 ] } },
{ "type": "Feature", "properties": { "supplier": "Master", "id": 70952, "x": 3568450, "y": 5942116, "lines": "S11,S1", "linekat": "S-Bahn", "lineshortkat": "S", "short_name": "Rübenkamp (City Nord)", "priority": "0" }, "geometry": { "type": "Point", "coordinates": [ 10.033033794081875, 53.605960940293478 ] } },
{ "type": "Feature", "properties": { "supplier": "Master", "id": 71950, "x": 3569793, "y": 5945087, "lines": "S11,S1", "linekat": "S-Bahn", "lineshortkat": "S", "short_name": "Kornweg (Klein Borstel)", "priority": "0" }, "geometry": { "type": "Point", "coordinates": [ 10.053984502833687, 53.632473607013765 ] } },
{ "type": "Feature", "properties": { "supplier": "Master", "id": 71951, "x": 3570685, "y": 5945441, "lines": "S11,S1", "linekat": "S-Bahn", "lineshortkat": "S", "short_name": "Hoheneichen", "priority": "0" }, "geometry": { "type": "Point", "coordinates": [ 10.067546600866851, 53.6355341579726 ] } },
{ "type": "Feature", "properties": { "supplier": "Master", "id": 71952, "x": 3571686, "y": 5946107, "lines": "S11,S1", "linekat": "S-Bahn", "lineshortkat": "S", "short_name": "Wellingsbüttel", "priority": "0" }, "geometry": { "type": "Point", "coordinates": [ 10.08283013955074, 53.641381037720755 ] } },
{ "type": "Feature", "properties": { "supplier": "Master", "id": 71953, "x": 3572395, "y": 5947307, "lines": "S11,S1", "linekat": "S-Bahn", "lineshortkat": "S", "short_name": "Poppenbüttel", "priority": "0" }, "geometry": { "type": "Point", "coordinates": [ 10.093827310143745, 53.652063412945452 ] } },
{ "type": "Feature", "properties": { "supplier": "Master", "id": 80950, "x": 3564407, "y": 5935411, "lines": "S21,S2,U3,S3,S31,S1", "linekat": "U-Bahn,S-Bahn", "lineshortkat": "U,S", "short_name": "Landungsbrücken", "priority": "0" }, "geometry": { "type": "Point", "coordinates": [ 9.970582655420898, 53.546237363544698 ] } },
{ "type": "Feature", "properties": { "supplier": "Master", "id": 80951, "x": 3563459, "y": 5935777, "lines": "S21,S2,S3,S31,S1", "linekat": "S-Bahn", "lineshortkat": "S", "short_name": "Reeperbahn", "priority": "0" }, "geometry": { "type": "Point", "coordinates": [ 9.95635735215455, 53.549640693581885 ] } },
{ "type": "Feature", "properties": { "supplier": "Master", "id": 80952, "x": 3562650, "y": 5935557, "lines": "S21,S2,S3,S31,S1", "linekat": "S-Bahn", "lineshortkat": "S", "short_name": "Königstraße", "priority": "0" }, "geometry": { "type": "Point", "coordinates": [ 9.944109479196506, 53.547761294888815 ] } },
{ "type": "Feature", "properties": { "supplier": "Master", "id": 80953, "x": 3561998, "y": 5936017, "lines": "S21,S2,S3,S31,S11,S1", "linekat": "S-Bahn", "lineshortkat": "S", "short_name": "Altona", "priority": "0" }, "geometry": { "type": "Point", "coordinates": [ 9.934365489560006, 53.551971137294998 ] } },
{ "type": "Feature", "properties": { "supplier": "Master", "id": 80954, "x": 3560463, "y": 5936906, "lines": "S11,S1", "linekat": "S-Bahn", "lineshortkat": "S", "short_name": "Bahrenfeld", "priority": "0" }, "geometry": { "type": "Point", "coordinates": [ 9.911380125918148, 53.560136585013488 ] } },
{ "type": "Feature", "properties": { "supplier": "Master", "id": 80955, "x": 3558726, "y": 5936782, "lines": "S11,S1", "linekat": "S-Bahn", "lineshortkat": "S", "short_name": "Othmarschen", "priority": "0" }, "geometry": { "type": "Point", "coordinates": [ 9.885147122090425, 53.559219558773194 ] } },
{ "type": "Feature", "properties": { "supplier": "Master", "id": 80956, "x": 3557166, "y": 5936662, "lines": "S11,S1", "linekat": "S-Bahn", "lineshortkat": "S", "short_name": "Klein Flottbek (Botanischer Garten)", "priority": "0" }, "geometry": { "type": "Point", "coordinates": [ 9.861586593388758, 53.558313487623792 ] } },
{ "type": "Feature", "properties": { "supplier": "Master", "id": 80957, "x": 3555846, "y": 5937019, "lines": "S11,S1", "linekat": "S-Bahn", "lineshortkat": "S", "short_name": "Hochkamp", "priority": "0" }, "geometry": { "type": "Point", "coordinates": [ 9.841733346911067, 53.561662701839722 ] } },
{ "type": "Feature", "properties": { "supplier": "Master", "id": 80958, "x": 3561976, "y": 5937846, "lines": "S21,S3,A1", "linekat": "AKN Niederflurfahrzeug,S-Bahn", "lineshortkat": "A,S", "short_name": "Diebsteich", "priority": "0" }, "geometry": { "type": "Point", "coordinates": [ 9.934395887693485, 53.568405087209008 ] } },
{ "type": "Feature", "properties": { "supplier": "Master", "id": 81950, "x": 3554089, "y": 5937314, "lines": "S11,S1", "linekat": "S-Bahn", "lineshortkat": "S", "short_name": "Blankenese", "priority": "0" }, "geometry": { "type": "Point", "coordinates": [ 9.815271400453007, 53.564496784233128 ] } },
{ "type": "Feature", "properties": { "supplier": "Master", "id": 81951, "x": 3554017, "y": 5938650, "lines": "S1", "linekat": "S-Bahn", "lineshortkat": "S", "short_name": "Iserbrook", "priority": "0" }, "geometry": { "type": "Point", "coordinates": [ 9.814415633932416, 53.576506900135655 ] } },
{ "type": "Feature", "properties": { "supplier": "Master", "id": 81952, "x": 3552917, "y": 5939156, "lines": "S1", "linekat": "S-Bahn", "lineshortkat": "S", "short_name": "Sülldorf", "priority": "0" }, "geometry": { "type": "Point", "coordinates": [ 9.797896522900865, 53.581164825475057 ] } },
{ "type": "Feature", "properties": { "supplier": "Master", "id": 81953, "x": 3550233, "y": 5939359, "lines": "S1", "linekat": "S-Bahn", "lineshortkat": "S", "short_name": "Rissen", "priority": "0" }, "geometry": { "type": "Point", "coordinates": [ 9.757408686810777, 53.583252207768631 ] } },
{ "type": "Feature", "properties": { "supplier": "Master", "id": 82950, "x": 3559222, "y": 5941628, "lines": "S21,S3", "linekat": "S-Bahn", "lineshortkat": "S", "short_name": "Elbgaustraße", "priority": "0" }, "geometry": { "type": "Point", "coordinates": [ 9.893549512211282, 53.602699703345621 ] } },
{ "type": "Feature", "properties": { "supplier": "Master", "id": 83950, "x": 3557504, "y": 5943071, "lines": "S3", "linekat": "S-Bahn", "lineshortkat": "S", "short_name": "Krupunder", "priority": "0" }, "geometry": { "type": "Point", "coordinates": [ 9.867866279233963, 53.615854537274195 ] } },
{ "type": "Feature", "properties": { "supplier": "Master", "id": 84950, "x": 3564305, "y": 5937367, "lines": "S21,U3,S3,S31,S11,A1,S1", "linekat": "AKN Niederflurfahrzeug,U-Bahn,S-Bahn", "lineshortkat": "A,U,S", "short_name": "Sternschanze (Messe)", "priority": "0" }, "geometry": { "type": "Point", "coordinates": [ 9.969445995719996, 53.563821982436757 ] } },
{ "type": "Feature", "properties": { "supplier": "Master", "id": 84951, "x": 3562958, "y": 5937143, "lines": "S21,S3,S31,A1,S11,S1", "linekat": "AKN Niederflurfahrzeug,S-Bahn", "lineshortkat": "A,S", "short_name": "Holstenstraße", "priority": "0" }, "geometry": { "type": "Point", "coordinates": [ 9.949074517660762, 53.561972748692149 ] } },
{ "type": "Feature", "properties": { "supplier": "Master", "id": 84952, "x": 3561726, "y": 5939120, "lines": "S21,S3,A1", "linekat": "AKN Niederflurfahrzeug,S-Bahn", "lineshortkat": "A,S", "short_name": "Langenfelde", "priority": "0" }, "geometry": { "type": "Point", "coordinates": [ 9.930874473206082, 53.579879855905027 ] } },
{ "type": "Feature", "properties": { "supplier": "Master", "id": 84953, "x": 3560892, "y": 5940211, "lines": "S21,S3,A1", "linekat": "AKN Niederflurfahrzeug,S-Bahn", "lineshortkat": "A,S", "short_name": "Stellingen (Arenen)", "priority": "0" }, "geometry": { "type": "Point", "coordinates": [ 9.918497065046635, 53.58977854519857 ] } },
{ "type": "Feature", "properties": { "supplier": "Master", "id": 84960, "x": 3560083, "y": 5940918, "lines": "S21,S3,A1", "linekat": "AKN Niederflurfahrzeug,S-Bahn", "lineshortkat": "A,S", "short_name": "Eidelstedt", "priority": "0" }, "geometry": { "type": "Point", "coordinates": [ 9.906417553655974, 53.596223318468887 ] } },
{ "type": "Feature", "properties": { "supplier": "Master", "id": 85950, "x": 3546758, "y": 5939173, "lines": "S1", "linekat": "S-Bahn", "lineshortkat": "S", "short_name": "Wedel", "priority": "0" }, "geometry": { "type": "Point", "coordinates": [ 9.704915444900951, 53.581902049786393 ] } },
{ "type": "Feature", "properties": { "supplier": "Master", "id": 90950, "x": 3568337, "y": 5943743, "lines": "U1,S11,S1", "linekat": "U-Bahn,S-Bahn", "lineshortkat": "U,S", "short_name": "Ohlsdorf", "priority": "0" }, "geometry": { "type": "Point", "coordinates": [ 10.031683457382355, 53.62059174501384 ] } },
{ "type": "Feature", "properties": { "supplier": "Master", "id": 98950, "x": 3555548, "y": 5944706, "lines": "S3", "linekat": "S-Bahn", "lineshortkat": "S", "short_name": "Halstenbek", "priority": "0" }, "geometry": { "type": "Point", "coordinates": [ 9.838604194350202, 53.630754076377691 ] } },
{ "type": "Feature", "properties": { "supplier": "Master", "id": 99651, "x": 3566665, "y": 5945046, "lines": "S1", "linekat": "S-Bahn", "lineshortkat": "S", "short_name": "Hamburg Airport (Flughafen)", "priority": "0" }, "geometry": { "type": "Point", "coordinates": [ 10.006698114392824, 53.632512491026446 ] } },
{ "type": "Feature", "properties": { "supplier": "Master", "id": 99950, "x": 3553920, "y": 5946185, "lines": "S3", "linekat": "S-Bahn", "lineshortkat": "S", "short_name": "Thesdorf", "priority": "0" }, "geometry": { "type": "Point", "coordinates": [ 9.814253770777622, 53.644211347929073 ] } },
{ "type": "Feature", "properties": { "supplier": "Master", "id": 99951, "x": 3552856, "y": 5947365, "lines": "RE,RE7,RB61,S3,RE70,RB71,SEV", "linekat": "RegionalExpress,S-Bahn,Stadtbus,RegionalBahn", "lineshortkat": "RE,S,Bus,RB", "short_name": "Pinneberg", "priority": "0" }, "geometry": { "type": "Point", "coordinates": [ 9.798367109262937, 53.654920863038377 ] } },
{ "type": "Feature", "properties": { "supplier": "Master", "id": 8002556, "x": 3554474, "y": 5927330, "lines": "S3", "linekat": "S-Bahn", "lineshortkat": "S", "short_name": "Fischbek", "priority": "0" }, "geometry": { "type": "Point", "coordinates": [ 9.81934747176259, 53.474759484729987 ] } }
]
}
