{
"type": "FeatureCollection",
"name": "hamburg_bus_113_stations",
"crs": { "type": "name", "properties": { "name": "urn:ogc:def:crs:OGC:1.3:CRS84" } },
"features": [
{ "type": "Feature", "properties": { "id": 80015, "lines": "15,215,113,112,2,111", "supplier": "Master", "x": 3562134, "y": 5935546, "linekat": "Niederflur Metrobus,Niederflur Stadtbus,Niederflur Stadtbus,Niederflur Stadtbus,Niederflur Metrobus,Niederflur Stadtbus", "lineshortkat": "Bus,Bus,Bus,Bus,Bus,Bus", "short_name": "Rathaus Altona", "priority": "0" }, "geometry": { "type": "Point", "coordinates": [ 9.936323706920835, 53.547723708777376 ] } },
{ "type": "Feature", "properties": { "id": 80026, "lines": "20,25,688,183,115,150,112,2,601,15,RE7-SEV,600,288,215,621,16,113,641,1,250,609,S3-SEV,111", "supplier": "Master", "x": 3561994, "y": 5935969, "linekat": "Niederflur Metrobus,Niederflur Metrobus,Niederflur-Nachtbus,Niederflur Stadtbus,Niederflur Stadtbus,Niederflur Stadtbus,Niederflur Stadtbus,Niederflur Metrobus,Niederflur-Nachtbus,Niederflur Metrobus,Stadtbus,Niederflur-Nachtbus,Niederflur Stadtbus,Niederflur Stadtbus,Niederflur-Nachtbus,Niederflur Metrobus,Niederflur Stadtbus,Niederflur-Nachtbus,Niederflur Metrobus,Niederflur Stadtbus,Niederflur-Nachtbus,Stadtbus,Niederflur Stadtbus", "lineshortkat": "Bus,Bus,Nachtbus,Bus,Bus,Bus,Bus,Bus,Nachtbus,Bus,Bus,Nachtbus,Bus,Bus,Nachtbus,Bus,Bus,Nachtbus,Bus,Bus,Nachtbus,Bus,Bus", "short_name": "Bf. Altona", "priority": "0" }, "geometry": { "type": "Point", "coordinates": [ 9.934295639782807, 53.551540386430595 ] } },
{ "type": "Feature", "properties": { "id": 80091, "lines": "113,111", "supplier": "Master", "x": 3561809, "y": 5935271, "linekat": "Niederflur Stadtbus,Niederflur Stadtbus", "lineshortkat": "Bus,Bus", "short_name": "Elbberg", "priority": "0" }, "geometry": { "type": "Point", "coordinates": [ 9.931366968253171, 53.54529146723354 ] } },
{ "type": "Feature", "properties": { "id": 80118, "lines": "113", "supplier": "Master", "x": 3562273, "y": 5936732, "linekat": "Niederflur Stadtbus", "lineshortkat": "Bus", "short_name": "Platz der Arbeiterinnen", "priority": "0" }, "geometry": { "type": "Point", "coordinates": [ 9.938656395706687, 53.558362039992254 ] } },
{ "type": "Feature", "properties": { "id": 80988, "lines": "113", "supplier": "Master", "x": 3562394, "y": 5937069, "linekat": "Niederflur Stadtbus", "lineshortkat": "Bus", "short_name": "Eva-Rühmkorf-Straße", "priority": "0" }, "geometry": { "type": "Point", "coordinates": [ 9.940549274538045, 53.561375221042859 ] } },
{ "type": "Feature", "properties": { "id": 80011, "lines": "113", "supplier": "Master", "x": 3560717, "y": 5935138, "linekat": "Niederflur Stadtbus", "lineshortkat": "Bus", "short_name": "Neumühlen/Övelgönne (Fähre)", "priority": "0" }, "geometry": { "type": "Point", "coordinates": [ 9.914869801344901, 53.544223848035244 ] } },
{ "type": "Feature", "properties": { "id": 80012, "lines": "113", "supplier": "Master", "x": 3561079, "y": 5935153, "linekat": "Niederflur Stadtbus", "lineshortkat": "Bus", "short_name": "Lawaetzhaus", "priority": "0" }, "geometry": { "type": "Point", "coordinates": [ 9.920332880015097, 53.544316680408372 ] } },
{ "type": "Feature", "properties": { "id": 80014, "lines": "113,111", "supplier": "Master", "x": 3561433, "y": 5935207, "linekat": "Niederflur Stadtbus,Niederflur Stadtbus", "lineshortkat": "Bus,Bus", "short_name": "Neumühler Kirchenweg", "priority": "0" }, "geometry": { "type": "Point", "coordinates": [ 9.925682963188278, 53.544760567502472 ] } },
{ "type": "Feature", "properties": { "id": 10929, "lines": "8113", "supplier": "Master", "x": 3580851, "y": 5952860, "linekat": "Niederflur Stadtbus", "lineshortkat": "Bus", "short_name": "Joostredder", "priority": "0" }, "geometry": { "type": "Point", "coordinates": [ 10.22313044224278, 53.700707583194031 ] } },
{ "type": "Feature", "properties": { "id": 25071, "lines": "8111,8725,8118,8114,8112,8115,8113,8726,8116", "supplier": "Master", "x": 3582510, "y": 5955546, "linekat": "Niederflur Stadtbus,Niederflur Stadtbus,Niederflur Stadtbus,Niederflur Stadtbus,Niederflur Stadtbus,Niederflur Stadtbus,Niederflur Stadtbus,Niederflur Stadtbus,Niederflur Stadtbus", "lineshortkat": "Bus,Bus,Bus,Bus,Bus,Bus,Bus,Bus,Bus", "short_name": "Am Volkspark", "priority": "0" }, "geometry": { "type": "Point", "coordinates": [ 10.248958577441668, 53.72457570407925 ] } },
{ "type": "Feature", "properties": { "id": 25091, "lines": "8725,8114,8112,8115,8113,8726,8116", "supplier": "Master", "x": 3583020, "y": 5955842, "linekat": "Niederflur Stadtbus,Niederflur Stadtbus,Niederflur Stadtbus,Niederflur Stadtbus,Niederflur Stadtbus,Niederflur Stadtbus,Niederflur Stadtbus", "lineshortkat": "Bus,Bus,Bus,Bus,Bus,Bus,Bus", "short_name": "Lindenstraße", "priority": "0" }, "geometry": { "type": "Point", "coordinates": [ 10.256762409172117, 53.727153734992143 ] } },
{ "type": "Feature", "properties": { "id": 42501, "lines": "2707,2113,2103", "supplier": "Master", "x": 3541533, "y": 5928159, "linekat": "Stadtbus,Stadtbus,Stadtbus", "lineshortkat": "Bus,Bus,Bus", "short_name": "Mühlenkampstraße", "priority": "0" }, "geometry": { "type": "Point", "coordinates": [ 9.624570568791976, 53.483386038988158 ] } },
{ "type": "Feature", "properties": { "id": 42502, "lines": "2703,2113,2103", "supplier": "Master", "x": 3541483, "y": 5928139, "linekat": "Stadtbus,Stadtbus,Stadtbus", "lineshortkat": "Bus,Bus,Bus", "short_name": "Harsefelder Straße", "priority": "0" }, "geometry": { "type": "Point", "coordinates": [ 9.623814792101921, 53.483210285067912 ] } },
{ "type": "Feature", "properties": { "id": 42503, "lines": "2703,2113,2103", "supplier": "Master", "x": 3541037, "y": 5927614, "linekat": "Stadtbus,Stadtbus,Stadtbus", "lineshortkat": "Bus,Bus,Bus", "short_name": "Feldstraße", "priority": "0" }, "geometry": { "type": "Point", "coordinates": [ 9.617028307559041, 53.478528289678181 ] } },
{ "type": "Feature", "properties": { "id": 42504, "lines": "2703,2113,2103", "supplier": "Master", "x": 3541859, "y": 5928089, "linekat": "Stadtbus,Stadtbus,Stadtbus", "lineshortkat": "Bus,Bus,Bus", "short_name": "Cuxhavener Straße", "priority": "0" }, "geometry": { "type": "Point", "coordinates": [ 9.62947170300389, 53.482731330845837 ] } },
{ "type": "Feature", "properties": { "id": 42505, "lines": "2703,2064,2113,2103", "supplier": "Master", "x": 3540521, "y": 5927306, "linekat": "Stadtbus,Stadtbus,Stadtbus,Stadtbus", "lineshortkat": "Bus,Bus,Bus,Bus", "short_name": "Fuhrenkamp", "priority": "0" }, "geometry": { "type": "Point", "coordinates": [ 9.609217112370278, 53.475800945231505 ] } },
{ "type": "Feature", "properties": { "id": 42506, "lines": "2113", "supplier": "Master", "x": 3541879, "y": 5928236, "linekat": "Stadtbus", "lineshortkat": "Bus", "short_name": "Moorstraße", "priority": "0" }, "geometry": { "type": "Point", "coordinates": [ 9.629792534467864, 53.484050472577444 ] } },
{ "type": "Feature", "properties": { "id": 42509, "lines": "2199,2113,S3-SEV", "supplier": "Master", "x": 3542332, "y": 5927770, "linekat": "Stadtbus,Stadtbus,Stadtbus", "lineshortkat": "Bus,Bus,Bus", "short_name": "Pfingstmarkt", "priority": "0" }, "geometry": { "type": "Point", "coordinates": [ 9.636553313946255, 53.47982748339458 ] } },
{ "type": "Feature", "properties": { "id": 42604, "lines": "2113", "supplier": "Master", "x": 3543515, "y": 5927273, "linekat": "Stadtbus", "lineshortkat": "Bus", "short_name": "Ilskamp", "priority": "0" }, "geometry": { "type": "Point", "coordinates": [ 9.654302201375224, 53.475265846194098 ] } },
{ "type": "Feature", "properties": { "id": 42605, "lines": "2113", "supplier": "Master", "x": 3542394, "y": 5927833, "linekat": "Stadtbus", "lineshortkat": "Bus", "short_name": "Bergstraße", "priority": "0" }, "geometry": { "type": "Point", "coordinates": [ 9.637495617842207, 53.480388527684489 ] } },
{ "type": "Feature", "properties": { "id": 42607, "lines": "2113", "supplier": "Master", "x": 3542789, "y": 5927740, "linekat": "Stadtbus", "lineshortkat": "Bus", "short_name": "Am Gleise", "priority": "0" }, "geometry": { "type": "Point", "coordinates": [ 9.643432310864432, 53.479521050022939 ] } },
{ "type": "Feature", "properties": { "id": 45017, "lines": "2036,2111,2113", "supplier": "Master", "x": 3544253, "y": 5925630, "linekat": "Stadtbus,Stadtbus,Stadtbus", "lineshortkat": "Bus,Bus,Bus", "short_name": "Berliner Straße (Schulzentrum)", "priority": "0" }, "geometry": { "type": "Point", "coordinates": [ 9.665185249923567, 53.460442849995474 ] } },
{ "type": "Feature", "properties": { "id": 72001, "lines": "627,374,8112,774,8113,474", "supplier": "Master", "x": 3577520, "y": 5951959, "linekat": "Niederflur-Nachtbus,Niederflur Stadtbus,Niederflur Stadtbus,Niederflur Stadtbus,Niederflur Stadtbus,Niederflur Stadtbus", "lineshortkat": "Nachtbus,Bus,Bus,Bus,Bus,Bus", "short_name": "Lehmkuhle", "priority": "0" }, "geometry": { "type": "Point", "coordinates": [ 10.172480939973401, 53.693118534491553 ] } },
{ "type": "Feature", "properties": { "id": 72002, "lines": "627,374,8112,8113,774,474", "supplier": "Master", "x": 3577220, "y": 5951768, "linekat": "Niederflur-Nachtbus,Niederflur Stadtbus,Niederflur Stadtbus,Niederflur Stadtbus,Niederflur Stadtbus,Niederflur Stadtbus", "lineshortkat": "Nachtbus,Bus,Bus,Bus,Bus,Bus", "short_name": "Rathaus", "priority": "0" }, "geometry": { "type": "Point", "coordinates": [ 10.167892841870721, 53.691447182671233 ] } },
{ "type": "Feature", "properties": { "id": 72003, "lines": "627,374,8112,774,8113,474", "supplier": "Master", "x": 3576701, "y": 5951166, "linekat": "Niederflur-Nachtbus,Niederflur Stadtbus,Niederflur Stadtbus,Niederflur Stadtbus,Niederflur Stadtbus,Niederflur Stadtbus", "lineshortkat": "Nachtbus,Bus,Bus,Bus,Bus,Bus", "short_name": "Beekkamp", "priority": "0" }, "geometry": { "type": "Point", "coordinates": [ 10.159889197264274, 53.68611582292985 ] } },
{ "type": "Feature", "properties": { "id": 72004, "lines": "627,374,8112,774,8113,474", "supplier": "Master", "x": 3576339, "y": 5950664, "linekat": "Niederflur-Nachtbus,Niederflur Stadtbus,Niederflur Stadtbus,Niederflur Stadtbus,Niederflur Stadtbus,Niederflur Stadtbus", "lineshortkat": "Nachtbus,Bus,Bus,Bus,Bus,Bus", "short_name": "Teichweg", "priority": "0" }, "geometry": { "type": "Point", "coordinates": [ 10.154287710076213, 53.681659326065834 ] } },
{ "type": "Feature", "properties": { "id": 72005, "lines": "627,374,8112,574,774,8113,474", "supplier": "Master", "x": 3575861, "y": 5950297, "linekat": "Niederflur-Nachtbus,Niederflur Stadtbus,Niederflur Stadtbus,Niederflur Stadtbus,Niederflur Stadtbus,Niederflur Stadtbus,Niederflur Stadtbus", "lineshortkat": "Nachtbus,Bus,Bus,Bus,Bus,Bus,Bus", "short_name": "U Hoisbüttel", "priority": "0" }, "geometry": { "type": "Point", "coordinates": [ 10.146965333127563, 53.678432094751841 ] } },
{ "type": "Feature", "properties": { "id": 72010, "lines": "627,374,8112,8113,774", "supplier": "Master", "x": 3580398, "y": 5953980, "linekat": "Niederflur-Nachtbus,Niederflur Stadtbus,Niederflur Stadtbus,Niederflur Stadtbus,Niederflur Stadtbus", "lineshortkat": "Nachtbus,Bus,Bus,Bus,Bus", "short_name": "Tannenkoppelweg", "priority": "0" }, "geometry": { "type": "Point", "coordinates": [ 10.216563406299922, 53.710838115122172 ] } },
{ "type": "Feature", "properties": { "id": 72011, "lines": "627,374,8112,774,8113", "supplier": "Master", "x": 3579743, "y": 5953331, "linekat": "Niederflur-Nachtbus,Niederflur Stadtbus,Niederflur Stadtbus,Niederflur Stadtbus,Niederflur Stadtbus", "lineshortkat": "Nachtbus,Bus,Bus,Bus,Bus", "short_name": "Bramkampredder", "priority": "0" }, "geometry": { "type": "Point", "coordinates": [ 10.206478886370034, 53.70510865439028 ] } },
{ "type": "Feature", "properties": { "id": 72012, "lines": "627,374,8112,774,8113", "supplier": "Master", "x": 3578789, "y": 5952811, "linekat": "Niederflur-Nachtbus,Niederflur Stadtbus,Niederflur Stadtbus,Niederflur Stadtbus,Niederflur Stadtbus", "lineshortkat": "Nachtbus,Bus,Bus,Bus,Bus", "short_name": "Hunnau", "priority": "0" }, "geometry": { "type": "Point", "coordinates": [ 10.191903790053853, 53.700582255034774 ] } },
{ "type": "Feature", "properties": { "id": 72013, "lines": "627,374,8112,8113,774", "supplier": "Master", "x": 3578275, "y": 5952540, "linekat": "Niederflur-Nachtbus,Niederflur Stadtbus,Niederflur Stadtbus,Niederflur Stadtbus,Niederflur Stadtbus", "lineshortkat": "Nachtbus,Bus,Bus,Bus,Bus", "short_name": "Laberg", "priority": "0" }, "geometry": { "type": "Point", "coordinates": [ 10.184054561900336, 53.698225112029419 ] } },
{ "type": "Feature", "properties": { "id": 72054, "lines": "8113,774", "supplier": "Master", "x": 3580848, "y": 5953842, "linekat": "Niederflur Stadtbus,Niederflur Stadtbus", "lineshortkat": "Bus,Bus", "short_name": "Bünningstedter Feldweg", "priority": "0" }, "geometry": { "type": "Point", "coordinates": [ 10.223341019076749, 53.709529077557761 ] } },
{ "type": "Feature", "properties": { "id": 72056, "lines": "627,374,8112,8113,774", "supplier": "Master", "x": 3580624, "y": 5954186, "linekat": "Niederflur-Nachtbus,Niederflur Stadtbus,Niederflur Stadtbus,Niederflur Stadtbus,Niederflur Stadtbus", "lineshortkat": "Nachtbus,Bus,Bus,Bus,Bus", "short_name": "Op'n Sand", "priority": "0" }, "geometry": { "type": "Point", "coordinates": [ 10.220038923134153, 53.71265373791843 ] } },
{ "type": "Feature", "properties": { "id": 72057, "lines": "627,374,8112,774,8113", "supplier": "Master", "x": 3580088, "y": 5953695, "linekat": "Niederflur-Nachtbus,Niederflur Stadtbus,Niederflur Stadtbus,Niederflur Stadtbus,Niederflur Stadtbus", "lineshortkat": "Nachtbus,Bus,Bus,Bus,Bus", "short_name": "Schäferdresch", "priority": "0" }, "geometry": { "type": "Point", "coordinates": [ 10.211795962181663, 53.708325630849345 ] } },
{ "type": "Feature", "properties": { "id": 80159, "lines": "8113", "supplier": "Master", "x": 3580148, "y": 5955026, "linekat": "Niederflur Stadtbus", "lineshortkat": "Bus", "short_name": "Am Wischhof", "priority": "0" }, "geometry": { "type": "Point", "coordinates": [ 10.2130485443115, 53.720272460243741 ] } },
{ "type": "Feature", "properties": { "id": 80291, "lines": "8113", "supplier": "Master", "x": 3580563, "y": 5954328, "linekat": "Niederflur Stadtbus", "lineshortkat": "Bus", "short_name": "Klein Hansdorf Straße", "priority": "0" }, "geometry": { "type": "Point", "coordinates": [ 10.219152165862301, 53.713938692176939 ] } },
{ "type": "Feature", "properties": { "id": 80489, "lines": "8725,8118,8112,8115,8113,8726,8116", "supplier": "Master", "x": 3583252, "y": 5955619, "linekat": "Niederflur Stadtbus,Niederflur Stadtbus,Niederflur Stadtbus,Niederflur Stadtbus,Niederflur Stadtbus,Niederflur Stadtbus,Niederflur Stadtbus", "lineshortkat": "Bus,Bus,Bus,Bus,Bus,Bus,Bus", "short_name": "Schulzentrum", "priority": "0" }, "geometry": { "type": "Point", "coordinates": [ 10.260216570426808, 53.725113694282832 ] } },
{ "type": "Feature", "properties": { "id": 80881, "lines": "627,374,8725,8111,8118,8114,8112,8115,8113,8726,8116", "supplier": "Master", "x": 3582936, "y": 5955958, "linekat": "Niederflur-Nachtbus,Niederflur Stadtbus,Niederflur Stadtbus,Niederflur Stadtbus,Niederflur Stadtbus,Niederflur Stadtbus,Niederflur Stadtbus,Niederflur Stadtbus,Niederflur Stadtbus,Niederflur Stadtbus,Niederflur Stadtbus", "lineshortkat": "Nachtbus,Bus,Bus,Bus,Bus,Bus,Bus,Bus,Bus,Bus,Bus", "short_name": "Kirche", "priority": "0" }, "geometry": { "type": "Point", "coordinates": [ 10.255521123870187, 53.728209059375139 ] } },
{ "type": "Feature", "properties": { "id": 80988, "lines": "113", "supplier": "Master", "x": 3562394, "y": 5937069, "linekat": "Niederflur Stadtbus", "lineshortkat": "Bus", "short_name": "Eva-Rühmkorf-Straße", "priority": "0" }, "geometry": { "type": "Point", "coordinates": [ 9.940549274538045, 53.561375221042859 ] } },
{ "type": "Feature", "properties": { "id": 89301, "lines": "8113,774", "supplier": "Master", "x": 3580483, "y": 5953929, "linekat": "Niederflur Stadtbus,Niederflur Stadtbus", "lineshortkat": "Bus,Bus", "short_name": "Alter Teichweg", "priority": "0" }, "geometry": { "type": "Point", "coordinates": [ 10.217837182280928, 53.710366912306903 ] } },
{ "type": "Feature", "properties": { "id": 93000, "lines": "8113", "supplier": "Master", "x": 3581093, "y": 5953496, "linekat": "Niederflur Stadtbus", "lineshortkat": "Bus", "short_name": "Pumpenhaus", "priority": "0" }, "geometry": { "type": "Point", "coordinates": [ 10.226960038770146, 53.70638310417683 ] } },
{ "type": "Feature", "properties": { "id": 95700, "lines": "8113", "supplier": "Master", "x": 3580339, "y": 5955243, "linekat": "Niederflur Stadtbus", "lineshortkat": "Bus", "short_name": "Hansdorfer Redder", "priority": "0" }, "geometry": { "type": "Point", "coordinates": [ 10.215997458851357, 53.72219237261632 ] } }
]
}
